[
    {"id":1,"name":"老街烧烤","address":"漫时区","remark":"连锁品牌","img":"/static/grids/1.png","type":1,"latitude": 30.575702,"longitude": 114.323119},
    {"id":2,"name":"化骨绵爪武侠主题烧烤","address":"长鑫家园6号商铺","remark":"别具一格的主题烧烤店","img":"/static/grids/1.png","type":1,"latitude": 30.574270,"longitude": 114.330533},
    {"id":3,"name":"温州特色烧烤","address":"三角花园119号","remark":"味道还不错，很近","img":"/static/grids/1.png","type":1,"latitude": 30.580126,"longitude": 114.331734},
    {"id":4,"name":"汉森烧烤","address":"学院路9号","remark":"生意非常好","img":"/static/grids/1.png","type":1,"latitude": 30.579295,"longitude": 114.326992},
    {"id":5,"name":"蒙古大营烤全羊","address":"七星路十字路口","remark":"烤羊不错，要提前预约","img":"/static/grids/1.png","type":1,"latitude": 30.576413,"longitude": 114.339437}
]